City,Cloudiness,Country,Date,Humidity,Lat,Lng,Max Temp,Wind Speed
Tuktoyaktuk,90,CA,1570903591,86,69.44,-133.03,32.0,10.29
Hobart,21,AU,1570903592,86,-42.88,147.33,39.2,5.82
East London,40,ZA,1570903593,82,-33.02,27.91,64.4,9.17
Carnarvon,36,ZA,1570903594,7,-30.97,22.13,69.87,14.82
Xunchang,19,CN,1570903594,76,28.45,104.71,64.11,1.57
Ola,37,RU,1570903595,83,59.58,151.3,31.17,1.05
Monrovia,75,LR,1570903595,83,6.33,-10.8,78.8,5.82
Lebu,40,ET,1570903596,67,8.96,38.73,62.6,6.93
Rubik,0,AL,1570903597,88,41.77,19.78,66.2,0.47
Atuona,0,PF,1570903597,68,-9.8,-139.03,78.33,13.81
Tallinn,90,EE,1570903598,87,59.44,24.75,51.01,6.93
Bambous Virieux,40,MU,1570903599,78,-20.34,57.76,73.4,6.93
Seoul,1,KR,1570903599,87,37.57,126.98,53.6,2.24
Peniche,20,PT,1570903600,72,39.36,-9.38,70.0,13.87
Sterling,40,US,1570903601,43,39.0,-77.4,73.99,4.7
Grand Gaube,40,MU,1570903601,78,-20.01,57.66,73.4,6.93
Kruisfontein,72,ZA,1570903602,89,-34.0,24.73,53.67,7.01
Salalah,0,OM,1570903603,74,17.01,54.1,82.4,3.36
Saint-Philippe,20,CA,1570903603,48,45.36,-73.48,66.0,3.36
Upernavik,99,GL,1570903604,77,72.79,-56.15,29.91,11.78
Luderitz,0,NA,1570903604,68,-26.65,15.16,64.4,18.34
Sao Joao da Barra,86,BR,1570903605,58,-21.64,-41.05,84.2,18.34
Avarua,68,CK,1570903605,56,-21.21,-159.78,69.8,4.7
Rikitea,16,PF,1570903606,70,-23.12,-134.97,68.61,14.48
Mataura,66,NZ,1570903607,95,-46.19,168.86,41.0,5.99
Ushuaia,75,AR,1570903607,92,-54.81,-68.31,35.6,5.82
Dingle,96,PH,1570903607,89,11.0,122.67,73.29,4.89
Faanui,57,PF,1570903608,74,-16.48,-151.75,75.27,21.35
Busselton,0,AU,1570903610,61,-33.64,115.35,46.0,5.42
Vila Franca do Campo,40,PT,1570903611,59,37.72,-25.43,64.4,17.22
Kudahuvadhoo,100,MV,1570903612,77,2.67,72.89,82.29,17.0
Ongandjera,68,NA,1570903612,37,-17.88,15.07,80.67,5.17
Labuhan,72,ID,1570903612,80,-2.54,115.51,75.45,1.53
Morant Bay,20,JM,1570903612,59,17.88,-76.41,89.6,6.93
Yellowknife,40,CA,1570903613,64,62.45,-114.38,45.0,8.05
Jamame,41,SO,1570903614,83,0.07,42.75,80.85,13.95
Nikolskoye,90,RU,1570903615,93,59.7,30.79,48.2,20.13
Forbes,0,AU,1570903616,87,-33.38,148.01,46.0,5.02
Portland,90,US,1570903616,93,43.66,-70.25,55.99,8.05
Port Blair,3,IN,1570903616,72,11.67,92.75,83.37,6.14
Vaini,100,IN,1570903617,93,15.34,74.49,70.23,2.58
Klaksvik,97,FO,1570903618,75,62.23,-6.59,42.8,5.82
Crotone,0,IT,1570903618,88,39.09,17.12,68.0,1.12
Ponta do Sol,19,BR,1570903619,43,-20.63,-46.0,83.91,5.45
Glodeni,83,MD,1570903619,48,47.77,27.5,63.0,4.7
Jamestown,99,AU,1570903619,23,-33.21,138.6,62.49,20.37
Qaanaaq,99,GL,1570903621,75,77.48,-69.36,22.71,6.8
Port Elizabeth,1,US,1570903621,37,39.31,-74.98,72.0,8.05
Punta Arenas,40,CL,1570903622,65,-53.16,-70.91,41.0,38.03
Praya,75,ID,1570903622,83,-8.71,116.27,78.8,5.82
Barabai,72,ID,1570903624,80,-2.59,115.38,75.45,1.53
Almaznyy,52,RU,1570903624,66,48.03,40.04,50.79,7.52
Hermanus,39,ZA,1570903625,82,-34.42,19.24,63.0,9.87
Rehoboth,62,NA,1570903625,25,-23.31,17.08,74.01,6.46
Bluff,0,AU,1570903626,28,-23.58,149.07,62.85,6.23
Albany,75,US,1570903627,52,42.65,-73.75,64.4,4.7
Port Macquarie,75,AU,1570903627,93,-31.43,152.91,55.4,10.29
New Norfolk,27,AU,1570903627,86,-42.78,147.06,39.2,5.82
Alice Springs,0,AU,1570903628,13,-23.7,133.88,78.8,10.29
Rabak,43,SD,1570903628,42,13.18,32.74,88.95,6.99
Half Moon Bay,5,US,1570903629,51,37.46,-122.43,72.0,1.21
Yulara,16,AU,1570903629,10,-25.24,130.99,82.4,11.41
Huanren,53,CN,1570903630,63,41.26,125.37,39.63,3.95
Airai,25,TL,1570903631,34,-8.93,125.41,65.55,3.49
Bantva,1,IN,1570903631,63,21.49,70.07,82.65,5.63
Husavik,100,CA,1570903632,76,50.56,-96.99,39.0,5.99
Mashhad,0,IR,1570903633,30,36.3,59.61,68.0,6.93
Souillac,0,FR,1570903633,60,45.6,-0.6,75.2,2.24
Santa Isabel do Rio Negro,73,BR,1570903634,41,-0.41,-65.02,94.53,3.84
Saint George,20,GR,1570903634,82,39.45,22.34,68.0,4.65
Yenagoa,100,NG,1570903635,94,4.92,6.26,75.81,4.35
Guerrero Negro,17,MX,1570903635,31,27.97,-114.04,81.57,4.06
Port Alfred,95,ZA,1570903636,90,-33.59,26.89,62.01,3.0
Iquique,0,CL,1570903637,63,-20.22,-70.14,66.2,10.29
Guayaramerin,40,BO,1570903637,70,-10.82,-65.36,86.0,5.82
Tautira,20,PF,1570903637,57,-17.73,-149.15,77.0,2.24
Terra Santa,10,BR,1570903638,29,-2.1,-56.49,98.49,8.88
Leshukonskoye,98,RU,1570903639,93,64.9,45.76,40.35,8.46
Ancud,75,CL,1570903640,66,-41.87,-73.83,51.8,11.41
Lere,84,TD,1570903641,66,9.66,14.23,80.85,2.27
Batemans Bay,58,AU,1570903642,91,-35.71,150.18,46.99,3.0
Tasiilaq,90,GL,1570903643,92,65.61,-37.64,30.2,8.05
Puerto Ayora,20,EC,1570903644,57,-0.74,-90.35,77.0,8.05
Mao,20,DO,1570903645,49,19.55,-71.08,91.99,9.17
Zaranj,0,AF,1570903645,30,30.95,61.86,71.6,4.7
Cape Town,20,ZA,1570903645,72,-33.93,18.42,64.4,19.46
Christchurch,92,NZ,1570903646,93,-43.53,172.64,46.0,6.93
Norman Wells,75,CA,1570903648,86,65.28,-126.83,33.8,23.04
Saint-Georges,99,CA,1570903648,100,46.12,-70.67,55.0,3.0
San Roque,40,CO,1570903649,56,6.49,-75.02,84.2,6.93
Harper,1,US,1570903649,26,30.3,-99.24,61.0,5.65
Fare,25,PF,1570903650,74,-16.7,-151.02,75.09,19.6
Georgetown,75,GY,1570903650,66,6.8,-58.16,89.6,9.17
Senno,47,RU,1570903651,84,57.76,27.95,50.07,16.64
Kyzyl-Suu,100,KG,1570903652,96,42.34,78.0,38.91,14.67
Bwanga,95,TZ,1570903653,68,-3.03,31.76,70.59,6.62
Katangli,0,RU,1570903653,66,51.71,143.23,28.29,4.57
Tarata,0,PE,1570903654,49,-17.47,-70.03,71.6,10.29
Ulladulla,65,AU,1570903654,100,-35.36,150.48,46.99,5.82
Novobeysugskaya,1,RU,1570903655,60,45.47,39.89,54.75,1.95
Mitsamiouli,40,KM,1570903657,83,-11.38,43.28,80.6,34.45
Ambon,90,FR,1570903658,93,47.55,-2.56,64.4,8.05
Igarka,100,RU,1570903659,95,67.47,86.57,29.19,16.45
Sao Filipe,0,CV,1570903659,77,14.9,-24.5,79.41,18.68
Malvern,75,GB,1570903659,100,52.12,-2.33,55.0,3.36
Ostrovnoy,100,RU,1570903660,98,68.05,39.51,34.77,10.62
Arani,40,IN,1570903661,74,13.33,80.08,86.0,8.05
Clyde River,75,CA,1570903661,62,70.47,-68.59,32.0,4.7
Riyadh,0,SA,1570903662,26,24.63,46.72,84.2,0.78
Mandalgovi,29,MN,1570903663,52,45.76,106.27,18.57,9.0
Codrington,75,AU,1570903664,82,-28.95,153.24,55.4,11.41
Butaritari,5,KI,1570903664,70,3.07,172.79,84.99,10.61
Kidal,54,ML,1570903664,16,18.44,1.41,95.61,6.12
Tamandare,76,BR,1570903665,40,-8.28,-70.75,95.25,2.25
Padang,89,ID,1570903665,98,-0.92,100.36,66.99,0.28
Longyearbyen,20,NO,1570903666,73,78.22,15.63,21.2,4.7
Bredasdorp,85,ZA,1570903666,67,-34.53,20.04,62.6,4.7
San Quintin,87,PH,1570903667,83,17.54,120.52,67.89,5.28
Waitati,98,NZ,1570903667,96,-45.75,170.57,45.0,12.84
Northam,0,AU,1570903668,93,-31.65,116.67,44.6,6.12
Goderich,75,CA,1570903669,70,43.74,-81.71,48.0,13.0
Makakilo City,20,US,1570903670,65,21.35,-158.09,81.0,8.05
Mar del Plata,93,AR,1570903670,37,-46.43,-67.52,48.27,13.78
Shenjiamen,35,CN,1570903671,74,29.96,122.3,72.57,11.83
Hilo,1,US,1570903672,68,19.71,-155.08,75.99,6.93
Belomorsk,100,RU,1570903673,97,64.52,34.76,43.23,10.94
Walvis Bay,0,NA,1570903673,68,-22.95,14.51,64.4,10.29
Provideniya,0,RU,1570903674,86,64.42,-173.23,25.23,4.13
Hasaki,20,JP,1570903674,65,35.73,140.83,77.0,13.87
Adre,100,TD,1570903674,43,13.47,22.2,81.57,7.88
Dzaoudzi,5,YT,1570903675,78,-12.79,45.27,80.6,5.82
Cayenne,40,GF,1570903675,52,4.94,-52.33,89.6,11.41
Kapaa,20,US,1570903348,78,22.08,-159.32,80.6,12.75
Faya,40,SA,1570903676,52,18.39,42.45,71.6,6.23
Port Hedland,0,AU,1570903676,94,-20.31,118.58,73.4,3.36
Canchungo,20,GW,1570903677,59,12.07,-16.03,91.4,3.36
Yar-Sale,100,RU,1570903678,98,66.83,70.83,35.85,6.83
Opuwo,84,NA,1570903678,59,-18.06,13.84,71.85,6.6
Dali,0,CN,1570903678,78,34.79,109.94,59.97,11.04
Victoria,75,BN,1570903679,83,5.28,115.24,80.6,2.56
Kerman,0,IR,1570903679,11,30.29,57.06,66.2,4.7
Marrakesh,0,MA,1570903680,30,31.63,-7.99,86.0,9.17
Severo-Kurilsk,73,RU,1570903680,80,50.68,156.12,32.79,7.07
Koping,61,SE,1570903680,81,59.51,15.99,54.0,10.29
Puerto Colombia,75,CO,1570903681,66,10.99,-74.96,87.8,3.36
Lingyuan,94,CN,1570903681,32,41.24,119.4,39.99,6.18
Ahuimanu,20,US,1570903682,69,21.44,-157.84,81.0,9.17
Barrow,47,AR,1570903682,67,-38.31,-60.23,72.03,11.84
Jardim,10,BR,1570903682,25,-21.48,-56.15,100.83,10.18
Cabo San Lucas,90,MX,1570903683,83,22.89,-109.91,82.99,4.7
Tuatapere,99,NZ,1570903685,95,-46.13,167.69,41.0,5.99
Lorengau,92,PG,1570903686,73,-2.02,147.27,82.83,5.98
Klyuchi,30,RU,1570903686,53,52.25,79.17,52.41,4.24
Hachinohe,90,JP,1570903687,100,40.47,141.48,57.99,34.45
Kavaratti,31,IN,1570903688,66,10.57,72.64,83.55,4.19
Ribeira Grande,20,PT,1570903688,52,38.52,-28.7,64.4,11.41
Kosonsoy,4,UZ,1570903689,58,41.25,71.55,59.0,6.93
Vila Velha,0,BR,1570903689,51,-3.71,-38.6,86.0,23.04
Kathmandu,40,NP,1570903689,93,27.71,85.32,62.6,2.24
Castro,75,CL,1570903690,66,-42.48,-73.76,51.8,11.41
Lagoa da Canoa,69,BR,1570903691,56,-9.83,-36.74,81.39,14.64
Pevek,100,RU,1570903692,70,69.7,170.27,27.39,14.63
Asaba,89,NG,1570903692,94,6.19,6.75,74.19,5.96
Luau,74,CD,1570903693,63,-10.7,22.23,74.73,1.44
Lakes Entrance,0,AU,1570903693,94,-37.88,147.99,37.99,7.94
Comodoro Rivadavia,40,AR,1570903694,86,-45.87,-67.48,41.0,14.99
Nemuro,100,JP,1570903694,91,43.32,145.57,48.45,25.77
Ketchikan,75,US,1570903694,100,55.34,-131.65,44.6,5.82
Tiksi,51,RU,1570903695,88,71.64,128.87,14.25,6.12
Sitka,0,US,1570903696,18,37.17,-99.65,66.99,27.0
Lazaro Cardenas,40,MX,1570903697,42,28.39,-105.62,62.6,5.82
Nkoteng,53,CM,1570903697,88,4.5,12.12,72.21,2.39
Pakruojis,90,LT,1570903699,93,55.98,23.85,50.0,11.41
Milverton,90,CA,1570903700,57,43.57,-80.92,51.01,14.99
Davila,21,PH,1570903700,73,18.47,120.58,80.13,20.33
Richards Bay,72,ZA,1570903701,80,-28.77,32.06,71.31,20.38
Poronaysk,24,RU,1570903701,54,49.22,143.1,36.39,5.62
Iqaluit,75,CA,1570903702,93,63.75,-68.52,32.0,4.7
La Rioja,67,AR,1570903702,23,-29.41,-66.86,85.53,12.12
Hithadhoo,100,MV,1570903703,79,-0.6,73.08,79.77,8.07
Mariental,0,BR,1570903703,35,-25.72,-49.65,91.0,9.17
Arraial do Cabo,0,BR,1570903704,65,-22.97,-42.02,84.2,23.04
Chokurdakh,90,RU,1570903705,95,70.62,147.9,20.73,8.83
Kavieng,80,PG,1570903705,73,-2.57,150.8,83.19,4.32
Neiafu,40,TO,1570903705,88,-18.65,-173.98,75.2,4.7
Los Llanos de Aridane,75,ES,1570903706,60,28.66,-17.92,75.2,3.36
Komsomolskiy,92,RU,1570903707,94,67.55,63.78,30.99,8.45
Samarai,54,PG,1570903707,91,-10.62,150.67,68.97,3.2
Port Lincoln,100,AU,1570903708,71,-34.72,135.86,56.73,1.69
Hobyo,17,SO,1570903709,80,5.35,48.53,80.31,13.91
Constitucion,90,MX,1570903709,67,23.99,-104.67,64.99,2.37
Susanville,1,US,1570903710,26,40.42,-120.65,53.01,3.36
Lavrentiya,0,RU,1570903711,77,65.58,-170.99,32.25,11.09
Erenhot,77,CN,1570903712,44,43.65,111.97,34.23,11.76
Kodiak,1,US,1570903712,30,39.95,-94.76,60.01,20.8
Rock Springs,1,US,1570903713,15,41.59,-109.2,42.8,11.41
Emporia,1,US,1570903715,32,38.4,-96.18,66.0,16.11
Palmer,100,AU,1570903715,19,-34.85,139.16,70.0,9.17
Tangwani,37,PK,1570903716,69,28.28,69.0,78.8,5.67
Kysyl-Syr,100,RU,1570903718,93,63.9,122.77,16.23,7.26
Grand Island,1,US,1570903719,28,40.92,-98.34,55.99,12.75
Sisimiut,100,GL,1570903720,80,66.94,-53.67,27.93,10.67
Pinega,100,RU,1570903720,92,64.7,43.39,42.51,9.48
Marawi,66,PH,1570903720,88,8.0,124.29,75.99,4.0
Gondar,75,PT,1570903722,77,41.82,-8.78,66.99,9.17
Atambua,27,ID,1570903722,71,-9.11,124.89,70.77,3.44
Caravelas,46,BR,1570903723,58,-17.73,-39.27,81.57,12.11
Beringovskiy,1,RU,1570903724,72,63.05,179.32,35.67,8.7
Touros,40,BR,1570903724,51,-5.2,-35.46,86.0,14.99
Nazas,100,MX,1570903724,65,25.22,-104.11,65.01,4.61
Ionia,90,US,1570903725,49,42.99,-85.07,48.2,16.11
Santa Marta,75,CO,1570903725,74,11.24,-74.21,84.2,2.86
Skibbereen,75,IE,1570903725,93,51.55,-9.27,50.0,4.7
Dikson,100,RU,1570903726,97,73.51,80.55,30.63,26.64
Batesville,1,US,1570903726,35,35.77,-91.64,57.99,4.7
Vao,99,EE,1570903727,90,59.1,26.19,48.09,9.52
Ilulissat,40,GL,1570903728,86,69.22,-51.1,32.0,8.05
Katakwi,100,UG,1570903729,72,1.91,33.96,74.73,5.4
Kurilsk,100,RU,1570903730,83,45.23,147.88,42.69,14.47
Teguise,20,ES,1570903730,69,29.06,-13.56,75.2,13.87
Thompson,40,CA,1570903731,55,55.74,-97.86,35.6,16.11
Henties Bay,23,NA,1570903731,87,-22.12,14.28,63.0,5.99
Aitape,88,PG,1570903732,75,-3.15,142.36,82.29,8.6
Banda Aceh,100,ID,1570903733,92,5.56,95.32,73.47,2.25
Kalispell,1,US,1570903733,69,48.2,-114.32,45.0,3.36
Stillwater,1,US,1570903734,29,36.12,-97.06,64.99,11.41
Qandala,0,SO,1570903734,68,11.47,49.87,80.49,4.97
Raymond,5,CA,1570903735,56,49.47,-112.67,42.8,8.05
Mahebourg,40,MU,1570903735,78,-20.41,57.7,73.4,6.93
Tiarei,20,PF,1570903736,57,-17.53,-149.33,77.0,2.24
Camacha,40,PT,1570903736,73,33.08,-16.33,73.4,6.93
Kahului,20,US,1570903737,69,20.89,-156.47,78.8,5.82
Gambo,100,CF,1570903737,99,4.65,22.26,67.71,2.6
Amahai,89,ID,1570903738,86,-3.31,129.0,84.0,8.1
Mataram,98,ID,1570903739,98,-5.32,105.06,69.15,3.14
Isilkul,77,RU,1570903739,65,54.9,71.26,45.75,6.47
Imeni Poliny Osipenko,0,RU,1570903740,46,52.42,136.49,24.69,6.48
Valera,100,VE,1570903740,70,9.31,-70.61,81.39,2.88
Katsuura,40,JP,1570903740,64,33.93,134.5,68.0,27.51
Baruun-Urt,17,MN,1570903741,40,46.68,113.28,18.75,2.39
Yingcheng,75,CN,1570903741,88,30.93,113.57,64.4,4.47
Naze,75,NG,1570903743,83,5.43,7.07,80.6,4.7
Abu Dhabi,0,AE,1570903744,66,24.47,54.37,89.6,8.05
Kamal,80,ID,1570903745,83,-3.24,104.73,74.01,1.99
Antofagasta,20,CL,1570903745,63,-23.65,-70.4,64.4,14.99
Agirish,99,RU,1570903745,87,61.92,63.02,41.97,6.56
Linxia,69,CN,1570903746,70,35.6,103.21,42.33,1.81
Taoudenni,45,ML,1570903746,25,22.68,-3.98,94.17,17.96
Lipin Bor,100,RU,1570903746,84,60.26,37.97,46.83,12.43
Srednekolymsk,100,RU,1570903747,95,67.46,153.71,21.09,8.56
Chuy,100,UY,1570903749,88,-33.69,-53.46,71.31,7.73
Mayor Pablo Lagerenza,0,PY,1570903749,21,-19.93,-60.77,102.27,18.51
Broken Hill,69,AU,1570903750,17,-31.97,141.45,64.4,14.99
Ojdula,5,RO,1570903750,66,45.99,26.26,53.01,5.74
Carbonia,98,IT,1570903751,68,39.17,8.53,73.4,9.17
Weifang,83,CN,1570903751,87,36.71,119.16,55.29,4.64
Mahuva,0,IN,1570903752,73,21.09,71.76,86.25,10.02
Krusevac,0,HR,1570903752,64,43.38,17.11,68.0,6.93
Xichang,90,CN,1570903752,94,27.88,102.25,44.67,4.96
Bandarbeyla,26,SO,1570903753,80,9.49,50.81,81.39,5.36
Ginir,64,ET,1570903754,91,7.14,40.71,58.17,4.39
Marienburg,20,DE,1570903754,82,52.12,9.98,64.99,1.12
Bosaso,0,SO,1570903755,77,11.28,49.18,81.75,11.57
Santa Cruz,15,BR,1570903756,39,-6.22,-36.02,87.87,15.69
Tessalit,100,ML,1570903757,15,20.2,1.01,96.87,5.91
Maymyo,0,MM,1570903757,95,22.03,96.47,66.09,1.21
Rio Grande,88,BR,1570903757,70,-32.03,-52.1,84.2,8.05
Puerto Rico,50,CO,1570903758,46,1.91,-75.15,87.15,5.35
Killam,0,CA,1570903758,49,52.79,-111.86,43.0,10.0
Salinas,1,US,1570903759,31,36.67,-121.66,73.0,4.7
Vanavara,0,RU,1570903759,61,60.35,102.28,22.89,4.8
Beira,20,ES,1570903760,68,43.2,-8.36,66.99,11.41
Jian,2,IN,1570903761,70,25.65,87.89,74.73,4.74
Khatanga,100,RU,1570903762,91,71.98,102.47,24.15,9.4
Talakan,0,RU,1570903762,58,50.29,130.28,23.79,2.32
Donskoye,0,RU,1570903763,62,45.45,41.98,54.03,5.39
Arman,100,RU,1570903763,68,59.7,150.17,31.89,12.63
Ahipara,55,NZ,1570903764,100,-35.17,173.16,48.99,8.29
Nishihara,20,JP,1570903764,57,35.74,139.53,80.01,12.75
Haines Junction,100,CA,1570903765,95,60.75,-137.51,27.03,3.71
Ribas do Rio Pardo,73,BR,1570903766,26,-20.45,-53.76,95.61,7.67
Mattawa,90,CA,1570903766,100,46.32,-78.7,48.0,14.99
San Juan,0,AR,1570903767,19,-31.54,-68.53,90.21,19.31
Bradeni,32,RO,1570903767,76,46.08,24.83,50.0,5.82
Puerto Leguizamo,80,CO,1570903768,52,-0.19,-74.78,89.49,2.46
Shimoda,54,JP,1570903768,81,34.7,138.93,75.99,3.0
Oktyabrskiy,75,RU,1570903769,81,55.61,37.97,52.0,13.42
Freeport,75,BS,1570903770,65,26.54,-78.7,82.4,13.87
Kangaatsiaq,100,GL,1570903770,80,68.31,-53.46,33.87,6.64
Usinsk,76,RU,1570903770,90,66.0,57.56,33.33,11.79
Saint Lawrence,20,MT,1570903771,94,36.06,14.2,73.0,6.93
Bayir,0,TR,1570903772,88,37.27,28.22,68.0,2.24
Santiago de Cao,20,PE,1570903773,72,-7.96,-79.24,64.4,10.29
Westport,90,US,1570903773,63,41.14,-73.36,66.99,5.82
Algeciras,20,ES,1570903774,73,36.13,-5.45,73.4,6.93
Guane,21,CU,1570903775,74,22.2,-84.09,83.55,10.54
Tommot,100,RU,1570903775,92,58.97,126.27,14.97,10.05
Anadyr,47,RU,1570903776,85,64.73,177.51,23.0,6.71
Mudgee,0,AU,1570903777,93,-32.6,149.59,46.99,1.12
Chapais,90,CA,1570903777,46,49.78,-74.86,53.6,14.99
Narsaq,75,GL,1570903779,80,60.91,-46.05,33.8,2.24
Shahrud,3,IR,1570903780,75,36.42,54.97,57.99,12.53
Rome,22,IT,1570903781,77,41.89,12.48,69.8,3.36
Tshela,100,CD,1570903781,88,-4.99,12.94,75.81,4.78
Bowen,11,AU,1570903782,100,-20.01,148.25,68.0,4.7
Kita,20,JP,1570903782,57,35.76,139.74,80.01,12.75
Muroto,6,JP,1570903783,83,33.37,134.14,60.51,5.92
Agadir,0,MA,1570903784,54,30.42,-9.58,78.8,11.41
Jaciara,95,BR,1570903784,29,-15.95,-54.98,95.79,5.86
Garissa,42,KE,1570903785,64,-0.46,39.64,82.65,18.53
Vardo,90,US,1570903786,67,39.62,-77.74,66.99,4.51
Bitung,20,ID,1570903786,88,1.44,125.19,75.2,2.24
Hanna,0,CA,1570903787,52,51.64,-111.93,45.0,8.99
Jimma,100,ET,1570903787,93,7.67,36.84,58.89,2.7
Puerto Madryn,19,AR,1570903788,27,-42.77,-65.04,58.35,19.35
Alofi,97,NU,1570903788,78,-19.06,-169.92,71.6,11.41
Jiquinlaca,20,HN,1570903789,66,14.0,-88.35,86.0,3.36
Polovinnoye,98,RU,1570903790,80,54.79,65.99,43.95,11.01
Havre-Saint-Pierre,90,CA,1570903791,50,50.23,-63.6,55.4,6.93
Cidreira,0,BR,1570903792,73,-30.17,-50.22,74.01,14.4
Talnakh,100,RU,1570903793,92,69.49,88.39,23.97,16.8
Bumba,100,CD,1570903793,95,2.18,22.47,69.69,2.13
Leningradskiy,93,RU,1570903793,60,69.38,178.42,27.21,3.56
Manokwari,95,ID,1570903794,79,-0.87,134.08,73.29,3.3
Boshnyakovo,1,RU,1570903794,46,49.65,142.17,42.33,16.82
Acapulco,75,MX,1570903795,66,16.86,-99.88,89.6,3.36
Coahuayana,89,MX,1570903795,74,18.62,-100.35,82.11,2.16
Kaitangata,99,NZ,1570903796,83,-46.28,169.85,46.0,14.0
Bilibino,100,RU,1570903796,94,68.06,166.44,16.41,3.98
Belyy Yar,83,RU,1570903796,65,53.6,91.39,34.59,2.41
Kuopio,90,FI,1570903797,93,62.89,27.68,41.0,13.87
Mehamn,95,NO,1570903798,86,71.03,27.85,33.87,5.14
Kainantu,96,PG,1570903799,97,-6.29,145.87,56.73,1.44
Mto wa Mbu,71,TZ,1570903799,73,-3.38,35.86,71.13,9.14
Viedma,86,AR,1570903800,30,-40.81,-62.99,63.75,12.28
Bubaque,84,GW,1570903800,81,11.28,-15.83,82.65,18.76
Upington,0,ZA,1570903801,9,-28.46,21.24,89.6,9.17
Panjakent,35,UZ,1570903802,48,39.5,67.61,60.8,9.17
Batouri,33,CM,1570903803,93,4.44,14.36,71.13,3.21
Tigzirt,34,DZ,1570903803,39,36.57,4.2,71.13,5.25
Lakhtar,0,IN,1570903804,38,22.86,71.79,83.19,6.34
Apartado,40,CO,1570903804,70,7.88,-76.63,86.0,9.17
Porto Novo,40,BR,1570903806,26,-23.68,-45.44,91.4,8.05
Itarema,0,BR,1570903806,44,-2.92,-39.92,89.13,16.87
Najran,83,SA,1570903807,24,17.54,44.22,82.4,6.93
Pacific Grove,1,US,1570903807,31,36.62,-121.92,72.0,4.7
Kenai,1,US,1570903808,74,60.55,-151.26,42.01,3.8
Xuanhua,99,CN,1570903809,75,40.61,115.04,46.83,4.12
Cockburn Town,40,TC,1570903809,70,21.46,-71.14,86.0,6.93
Hami,83,CN,1570903809,33,42.84,93.51,59.79,4.72
Adrar,40,DZ,1570903811,30,27.87,-0.29,84.2,23.04
Kautokeino,99,NO,1570903811,79,69.01,23.04,28.11,6.31
Las Vegas,1,US,1570903811,5,36.17,-115.15,69.01,4.7
Lerwick,71,GB,1570903812,87,60.15,-1.15,44.6,3.36
Yumen,30,CN,1570903812,32,40.29,97.04,53.31,11.88
Sioux Lookout,75,CA,1570903813,64,50.1,-91.92,37.4,9.17
Honiara,40,SB,1570903814,94,-9.43,159.96,75.2,2.61
Saskylakh,100,RU,1570903815,81,71.97,114.09,24.69,9.9
Dongsheng,100,CN,1570903815,73,29.72,112.52,65.91,3.61
Mahon,75,IE,1570903816,93,51.89,-8.4,53.01,4.7
Rauma,30,FI,1570903817,93,61.13,21.5,44.6,4.7
Jijiga,26,ET,1570903817,79,9.35,42.8,64.29,11.46
Vasyurinskaya,17,RU,1570903818,100,45.12,39.42,53.01,3.41
Kalmunai,15,LK,1570903818,75,7.42,81.82,83.19,9.11
Khor,0,RU,1570903819,59,47.88,134.96,29.19,4.23
Burgeo,100,CA,1570903820,84,47.61,-57.61,48.27,26.21
Alvaraes,75,BR,1570903820,69,-3.22,-64.8,80.6,8.05
North Platte,1,US,1570903821,32,41.12,-100.77,55.0,16.11
Mount Gambier,83,AU,1570903821,71,-37.83,140.78,53.6,8.05
Seryshevo,0,RU,1570903822,49,51.09,128.38,24.69,4.52
Gawler,100,AU,1570903823,19,-34.6,138.75,70.0,9.17
Pangnirtung,75,CA,1570903824,92,66.15,-65.72,32.0,9.17
Boa Vista,75,BR,1570903826,44,2.82,-60.67,93.2,11.41
Saldanha,49,PT,1570903826,42,41.42,-6.55,72.03,9.35
Kieta,100,PG,1570903827,78,-6.22,155.63,80.67,7.22
Bridlington,93,GB,1570903827,87,54.08,-0.19,55.4,4.7
Gondanglegi,65,ID,1570903828,94,-7.75,112.01,70.77,5.48
Port Augusta,100,AU,1570903828,52,-32.49,137.76,69.01,3.36
Zhigansk,29,RU,1570903828,88,66.77,123.37,19.83,18.09
Berezovka,100,RU,1570903829,86,55.71,42.61,49.71,16.85
Deder,72,ET,1570903829,71,9.31,41.44,66.63,5.41
Hirara,79,JP,1570903830,73,24.8,125.28,77.79,20.42
Tongren,100,CN,1570903830,93,27.72,109.18,59.61,3.74
Bom Jesus da Lapa,19,BR,1570903833,19,-13.25,-43.41,98.6,6.93
Klamath Falls,1,US,1570903835,45,42.22,-121.78,52.0,2.84
Clemson,1,US,1570903836,39,34.69,-82.84,84.2,9.17
Palmas de Monte Alto,0,BR,1570903837,15,-14.26,-43.16,93.63,9.58
Villa Sandino,40,NI,1570903838,62,12.05,-84.99,87.8,5.21
Cherskiy,100,RU,1570903838,76,68.75,161.3,29.37,7.05
Galesong,20,ID,1570903839,88,-5.32,119.37,77.0,4.7
Shreveport,1,US,1570903839,33,32.52,-93.77,63.0,9.17
Lang Son,77,VN,1570903839,95,21.83,106.73,71.13,0.37
Angoche,0,MZ,1570903839,79,-16.23,39.91,75.09,6.45
Zarand,0,IR,1570903840,11,30.81,56.57,66.2,4.7
Esil,99,KZ,1570903841,78,51.96,66.41,46.29,7.56
Lermontovka,0,RU,1570903842,50,47.15,134.34,28.83,2.38
Balikpapan,46,ID,1570903842,97,-1.24,116.86,74.01,2.7
Kirakira,100,SB,1570903843,84,-10.46,161.92,77.07,5.28
Buchanan,75,LR,1570903844,83,5.88,-10.05,78.8,5.82
Hailar,0,CN,1570903844,47,49.2,119.7,21.27,8.28
Kiunga,52,PG,1570903846,98,-6.12,141.3,71.13,2.83
Lumsden,40,CA,1570903847,59,50.65,-104.86,37.99,26.4
Sawakin,0,SD,1570903847,69,19.1,37.33,86.43,4.65
Santa Fe,25,AR,1570903847,41,-31.62,-60.7,100.0,7.0
Miguelopolis,75,BR,1570903848,29,-20.18,-48.03,89.6,6.93
Corinto,40,CO,1570903849,69,3.17,-76.26,77.0,4.7
Fez,40,MA,1570903849,50,34.03,-5.02,78.8,8.05
Kargasok,100,RU,1570903850,87,59.06,80.87,35.13,6.89
Umm Lajj,69,SA,1570903855,23,25.02,37.27,89.85,14.26
Sayyan,73,YE,1570903856,37,15.17,44.32,64.65,9.48
Pisco,15,PE,1570903856,30,-13.71,-76.2,71.6,11.41
Tabou,99,CI,1570903857,94,4.42,-7.36,74.91,6.95
Dunedin,98,NZ,1570903857,96,-45.87,170.5,45.0,12.84
Esperance,8,AU,1570903858,100,-33.86,121.89,48.2,7.6
Otavi,88,NA,1570903858,49,-19.64,17.34,70.95,2.74
Karratha,0,AU,1570903859,53,-20.74,116.85,79.59,13.95
Geraldton,75,CA,1570903860,69,49.72,-86.95,39.2,9.17
Det Udom,20,TH,1570903861,94,14.9,105.08,78.8,2.24
Ishigaki,79,JP,1570903862,75,24.34,124.16,77.07,18.78
Kostomuksha,100,RU,1570903862,99,64.59,30.6,38.91,5.61
Mattru,100,SL,1570903862,91,7.62,-11.83,78.33,6.65
Oistins,40,BB,1570903863,66,13.07,-59.53,87.8,13.87
Malishka,90,AM,1570903863,68,39.74,45.39,66.2,11.41
Batagay,100,RU,1570903863,89,67.65,134.64,19.83,7.74
Loikaw,25,MM,1570903864,95,19.67,97.21,63.93,1.21
Hibbing,90,US,1570903865,93,47.43,-92.94,37.4,12.75
Leh,13,IN,1570903865,31,34.16,77.58,34.05,2.74
Soltsy,18,RU,1570903866,83,58.12,30.32,48.27,13.69
Adjumani,100,UG,1570903866,89,3.38,31.79,71.49,2.43
Stromness,90,CA,1570903867,66,42.87,-79.55,57.99,14.99
Liku,37,ID,1570903868,95,-0.73,119.89,69.87,1.13
Yurginskoye,100,RU,1570903869,78,56.82,67.39,46.29,6.92
Nalut,0,LY,1570903869,55,31.86,10.98,75.45,14.38
LaBelle,75,US,1570903870,54,26.76,-81.44,84.99,6.93
Grindavik,75,IS,1570903870,70,63.84,-22.43,44.6,5.82
Kokopo,90,PG,1570903871,79,-4.34,152.27,82.65,17.16
Meulaboh,98,ID,1570903871,80,4.14,96.13,80.13,4.92
Kungurtug,0,RU,1570903872,40,50.6,97.53,23.25,2.26
Nosy Varika,5,MG,1570903872,84,-20.58,48.53,72.03,7.89
Guarapari,17,BR,1570903873,65,-20.67,-40.5,82.4,17.22
Howard Springs,40,AU,1570903873,83,-12.5,131.05,80.6,3.36
Robertson,51,AU,1570903874,100,-34.59,150.59,48.99,5.82
Atbasar,99,KZ,1570903875,69,51.81,68.36,48.45,7.0
Beeville,90,US,1570903876,18,28.4,-97.75,75.0,10.29
Masterton,100,NZ,1570903877,83,-40.95,175.66,51.01,1.05
Obo,100,CF,1570903878,96,5.39,26.49,68.61,2.87
Lagoa,20,PT,1570903878,83,37.14,-8.45,69.8,10.29
Bintulu,75,MY,1570903879,100,3.17,113.03,77.0,2.24
Ulundi,21,ZA,1570903880,67,-28.29,31.43,69.51,4.44
Manakara,66,MG,1570903880,77,-22.14,48.01,74.37,9.86
Pangody,97,RU,1570903881,96,65.85,74.49,36.57,12.37
Virginia Beach,40,US,1570903592,56,36.85,-75.98,79.0,8.05
Tsumeb,88,NA,1570903883,49,-19.25,17.72,70.95,2.74
Prokopyevsk,0,RU,1570903883,71,53.89,86.74,38.37,2.08
Broome,20,GB,1570903884,93,52.47,1.45,54.0,3.36
Alta Floresta,20,BR,1570903884,55,-9.87,-56.08,91.4,3.36
Okhotsk,9,RU,1570903885,72,59.36,143.24,19.11,14.86
Inta,94,RU,1570903885,92,66.04,60.13,35.85,9.26
Anloga,40,GH,1570903886,88,5.79,0.9,78.8,5.82
Bethel,1,US,1570903886,92,60.79,-161.76,28.4,6.93
Carutapera,4,BR,1570903887,77,-1.2,-46.02,81.21,19.65
Pandhurna,3,IN,1570903887,75,21.6,78.53,72.93,6.85
Chama,58,ZM,1570903888,45,-11.22,33.16,80.13,8.17
Myitkyina,0,MM,1570903889,86,25.38,97.4,71.31,2.11
Carballo,20,ES,1570903890,68,43.21,-8.69,66.99,11.41
Vostok,0,RU,1570903890,54,46.45,135.83,23.07,0.77
Batetskiy,26,RU,1570903891,82,58.65,30.3,47.91,11.94
Louisville,1,US,1570903892,34,38.25,-85.76,57.0,4.7
Algiers,75,US,1570903892,73,29.94,-90.04,73.4,8.05
Saint-Francois,71,FR,1570903893,60,46.42,3.91,71.6,11.41
Elko,1,US,1570903893,23,40.83,-115.76,51.01,3.36
Kasongo-Lunda,100,CD,1570903894,90,-6.48,16.82,71.85,2.3
Fethiye,0,TR,1570903894,83,36.62,29.12,73.4,4.7
Vieques,40,PR,1570903894,62,18.43,-65.83,90.0,13.87
Mollendo,9,PE,1570903895,69,-17.03,-72.02,61.95,6.59
Fukue,40,JP,1570903896,73,35.03,136.69,71.6,32.21
Fortuna,1,US,1570903897,54,40.6,-124.16,57.99,3.36
Sistranda,75,NO,1570903899,70,63.73,8.83,44.6,13.87
Manggar,72,ID,1570903900,74,-2.88,108.27,80.85,5.73
Suntar,2,RU,1570903901,95,62.16,117.65,14.25,4.68
Hambantota,0,LK,1570903901,76,6.12,81.12,82.65,5.82
Patamundai,0,IN,1570903903,78,20.57,86.57,76.89,0.5
Imbituba,1,BR,1570903903,66,-28.24,-48.67,84.2,11.41
Bonfim,68,BR,1570903903,29,-20.33,-44.24,89.6,3.36
Dudinka,100,RU,1570903905,92,69.41,86.18,28.11,17.6
Torbay,75,CA,1570903905,66,47.66,-52.73,55.4,11.41
Lusambo,95,CD,1570903906,92,-4.97,23.44,72.03,2.89
Te Anau,86,NZ,1570903906,94,-45.41,167.72,39.63,3.2
Nome,1,US,1570903907,45,30.04,-94.42,68.0,12.75
Channel-Port aux Basques,100,CA,1570903908,88,47.57,-59.14,47.01,33.8
Port-Gentil,75,GA,1570903908,88,-0.72,8.78,80.6,12.75
Bayangol,0,MN,1570903909,55,48.91,106.09,23.07,2.34
Bors,0,FR,1570903909,68,45.81,0.74,71.01,10.29
Emerald,0,AU,1570903910,24,-23.53,148.16,59.0,4.7
Balakhta,49,RU,1570903911,64,55.38,91.62,30.09,3.23
Puerto Ayacucho,40,CO,1570903911,66,5.66,-67.63,87.8,6.93
Shipley,20,GB,1570903912,87,53.83,-1.78,54.0,3.36
Rudnya,35,RU,1570903913,77,50.8,44.56,47.37,7.21
Valparaiso,1,US,1570903913,45,41.47,-87.06,51.01,21.92
Palmeirais,0,BR,1570903913,17,-5.97,-43.06,102.63,9.1
Voh,90,NC,1570903915,84,-20.95,164.69,71.49,4.73
Cortez,1,US,1570903915,11,37.35,-108.58,57.2,9.17
Roald,75,NO,1570903916,87,62.58,6.12,43.0,2.24
Acajutla,20,SV,1570903916,55,13.59,-89.83,86.0,4.7
Boussu,75,BE,1570903917,87,50.43,3.8,62.01,8.05
Qasigiannguit,40,GL,1570903918,80,68.82,-51.19,30.2,14.99
At-Bashi,33,KG,1570903918,74,41.17,75.81,26.31,7.21
Oussouye,20,SN,1570903918,74,12.49,-16.54,91.4,9.17
Sakaiminato,75,JP,1570903919,59,35.55,133.23,64.4,13.87
Sur,0,OM,1570903920,72,22.57,59.53,78.69,6.4
Limpapa,99,PH,1570903921,86,7.12,121.91,73.47,2.02
Salisbury,75,GB,1570903921,100,51.07,-1.8,55.0,1.12
Sabinas Hidalgo,82,MX,1570903922,34,26.51,-100.18,65.91,5.72
Baykit,68,RU,1570903922,58,61.68,96.39,24.87,2.31
Mahibadhoo,100,MV,1570903923,78,3.78,72.97,79.95,5.09
Zhezkazgan,20,KZ,1570903923,65,47.8,67.71,51.69,7.51
Nenjiang,0,CN,1570903924,40,49.17,125.23,26.31,3.93
Hay River,75,CA,1570903924,65,60.82,-115.79,42.8,9.17
Volga,100,RU,1570903925,88,57.95,38.38,48.27,10.27
Drayton Valley,42,CA,1570903926,55,53.22,-114.98,40.17,4.19
Saint Anthony,1,US,1570903927,26,43.97,-111.68,45.0,2.47
San Joaquin,100,PH,1570903927,83,10.59,122.14,76.17,2.61
Morondava,100,MG,1570903928,54,-20.3,44.28,81.21,4.41
Kropotkin,2,RU,1570903929,58,45.43,40.58,55.65,3.25
Arlit,53,NE,1570903930,13,18.74,7.39,98.85,7.93
Trairi,0,BR,1570903930,27,-3.28,-39.27,96.33,11.3
Polignano a Mare,0,IT,1570903930,93,41.0,17.22,72.0,3.36
Alcaniz,53,ES,1570903931,91,41.05,-0.13,66.0,4.0
Saint-Augustin,20,CA,1570903931,48,45.63,-73.98,66.0,3.36
Andrews,90,US,1570903933,15,32.32,-102.55,59.0,11.41
Madimba,75,CM,1570903933,79,4.42,9.93,84.2,4.7
Huarmey,8,PE,1570903933,45,-10.07,-78.15,74.73,10.76
Oda,0,JP,1570903934,75,35.19,132.5,55.83,8.8
Lithgow,90,AU,1570903935,93,-33.48,150.16,53.6,4.7
Bam,0,IR,1570903935,23,29.11,58.36,67.89,3.49
Kokkola,75,FI,1570903936,93,63.84,23.13,39.0,4.7
Mareeba,40,AU,1570903937,88,-16.99,145.42,72.0,1.12
Halifax,90,CA,1570903937,100,44.65,-63.58,57.99,14.99
Puerto Escondido,75,MX,1570903938,66,15.86,-97.07,87.8,6.93
Cumanayagua,40,CU,1570903938,66,22.15,-80.2,87.8,9.17
Kota Belud,75,MY,1570903939,94,6.35,116.43,78.8,2.24
Teya,75,MX,1570903940,56,21.05,-89.07,93.2,5.82
Poum,8,MK,1570903940,82,41.28,20.71,57.2,1.42
Alpena,90,US,1570903942,47,45.06,-83.43,46.4,11.41
Basco,1,US,1570903942,35,40.33,-91.2,55.99,18.34
Hualmay,4,PE,1570903943,56,-11.1,-77.61,69.51,10.21
Nanning,1,CN,1570903944,83,22.83,108.3,77.0,8.95
Vanino,100,RU,1570903945,55,53.93,40.55,54.0,8.01
Amapa,40,HN,1570903945,59,15.09,-87.97,89.6,8.05
Abilene,1,US,1570903946,11,32.45,-99.73,62.6,6.93
Aparecida do Taboado,97,BR,1570903948,27,-20.08,-51.1,95.97,7.58
Poso,67,ID,1570903948,89,-1.4,120.75,66.27,2.68
Newcastle,90,AU,1570903949,93,-32.93,151.78,55.0,8.05
Avera,1,US,1570903949,35,33.19,-82.53,86.0,5.82
Griffith,12,AU,1570903949,76,-34.29,146.06,53.01,9.17
Buala,96,SB,1570903950,81,-8.15,159.59,79.23,5.38
Bilma,40,NE,1570903950,14,18.69,12.92,93.63,7.72
Axim,90,GH,1570903950,94,4.87,-2.24,75.09,3.41
Matagami,99,NG,1570903951,89,9.67,8.4,72.39,1.22
Harnosand,96,SE,1570903951,93,62.63,17.94,46.0,4.7
Maningrida,67,AU,1570903952,93,-12.05,134.23,66.99,4.26
Yeppoon,0,AU,1570903952,93,-23.13,150.74,60.8,1.2
