City,Cloudiness,Country,Date,Humidity,Lat,Lng,Max Temp,Wind Speed
Hilo,1,US,1571274777,51,19.71,-155.08,86.0,6.93
Narok,72,KE,1571274777,85,-1.09,35.87,54.46,3.93
Busselton,27,AU,1571274778,83,-33.64,115.35,57.99,3.0
Rikitea,100,PF,1571274778,79,-23.12,-134.97,73.94,3.78
Punta Arenas,2,CL,1571274778,87,-53.16,-70.91,46.0,8.05
Hobart,40,AU,1571274779,66,-42.88,147.33,59.0,8.05
Bathsheba,20,BB,1571274779,83,13.22,-59.52,80.6,5.82
Souillac,100,FR,1571274779,87,45.6,-0.6,59.0,5.82
Karratha,0,AU,1571274779,55,-20.74,116.85,77.34,4.38
Albany,90,US,1571274780,81,42.65,-73.75,55.0,9.17
Port Alfred,0,ZA,1571274780,97,-33.59,26.89,57.0,3.0
Yulara,0,AU,1571274780,19,-25.24,130.99,71.6,17.22
Ushuaia,17,AR,1571274781,92,-54.81,-68.31,51.8,12.75
Carnarvon,0,ZA,1571274781,12,-30.97,22.13,71.29,8.21
Torbay,90,CA,1571274781,93,47.66,-52.73,48.99,10.29
Cape Town,20,ZA,1571274782,93,-33.93,18.42,63.0,13.87
Saskylakh,70,RU,1571274782,96,71.97,114.09,5.07,7.43
Qaanaaq,100,GL,1571274782,85,77.48,-69.36,13.3,10.57
Oksfjord,0,NO,1571274782,85,70.24,22.35,30.2,11.41
Hermanus,0,ZA,1571274783,92,-34.42,19.24,62.01,5.01
Tasiilaq,13,GL,1571274783,61,65.61,-37.64,32.0,2.22
Bima,66,ID,1571274783,61,-8.45,118.73,79.52,3.39
Deputatskiy,100,RU,1571274783,94,69.3,139.9,9.86,3.93
Saint Anthony,1,US,1571274784,21,43.97,-111.68,66.2,3.36
Manokwari,91,ID,1571274784,69,-0.87,134.08,79.56,3.92
Halifax,75,CA,1571274784,81,44.65,-63.58,46.0,5.82
Moron,73,HT,1571274785,76,18.56,-74.26,80.8,1.18
Mahebourg,75,MU,1571274785,73,-20.41,57.7,69.8,12.75
Cherskiy,17,RU,1571274785,93,68.75,161.3,24.94,16.28
Butaritari,89,KI,1571274786,69,3.07,172.79,82.13,2.57
Minot,1,US,1571274786,81,48.23,-101.3,45.0,4.7
Hargeysa,31,SO,1571274786,78,9.56,44.06,66.43,5.87
Bethel,40,US,1571274787,80,60.79,-161.76,42.8,10.29
Saint George,0,GR,1571274787,87,39.45,22.34,57.2,0.49
Jamestown,17,AU,1571274787,47,-33.21,138.6,55.29,12.52
Anshun,99,CN,1571274788,94,26.25,105.93,54.61,5.11
Shuyskoye,100,RU,1571274788,88,59.37,41.03,36.27,7.47
Roald,78,NO,1571274788,71,62.58,6.12,51.8,9.17
Rudnya,0,RU,1571274788,69,50.8,44.56,40.66,5.78
College,75,US,1571274789,47,64.86,-147.8,33.8,9.17
Henties Bay,54,NA,1571274789,90,-22.12,14.28,62.01,3.0
Teguldet,98,RU,1571274790,88,57.31,88.17,45.48,12.64
Bredasdorp,0,ZA,1571274790,87,-34.53,20.04,62.01,1.68
Atuona,1,PF,1571274790,69,-9.8,-139.03,80.1,10.85
Bluff,90,AU,1571274790,58,-23.58,149.07,79.92,13.01
Geraldton,75,CA,1571274791,83,49.72,-86.95,37.4,4.7
Mataura,82,NZ,1571274791,62,-46.19,168.86,55.99,8.99
Atar,70,MR,1571274791,30,20.52,-13.05,87.24,11.9
Kyabe,83,TD,1571274792,87,9.45,18.94,71.06,1.28
Ossora,100,RU,1571274792,61,59.24,163.07,34.72,4.12
Barrow,82,AR,1571274793,87,-38.31,-60.23,52.3,10.6
Namibe,12,AO,1571274793,83,-15.19,12.15,71.38,13.38
Ilulissat,97,GL,1571274794,62,69.22,-51.1,23.0,1.12
Tiksi,99,RU,1571274794,96,71.64,128.87,21.88,5.1
Cabo San Lucas,20,MX,1571274794,83,22.89,-109.91,84.0,11.41
Iqaluit,75,CA,1571274794,83,63.75,-68.52,32.0,4.7
Hithadhoo,63,MV,1571274795,79,-0.6,73.08,81.36,12.31
Luderitz,26,NA,1571274795,80,-26.65,15.16,58.33,15.26
Kavieng,79,PG,1571274795,72,-2.57,150.8,83.93,8.4
Kavaratti,99,IN,1571274796,68,10.57,72.64,83.16,3.02
Puerto Ayora,39,EC,1571274796,64,-0.74,-90.35,71.6,17.22
Vaini,40,IN,1571274796,100,15.34,74.49,69.8,4.7
Padang,58,ID,1571274797,94,-0.92,100.36,69.51,1.29
Luanda,75,AO,1571274797,83,-8.83,13.24,77.0,4.7
New Norfolk,40,AU,1571274797,66,-42.78,147.06,59.0,8.05
Santa Isabel do Rio Negro,99,BR,1571274798,79,-0.41,-65.02,77.65,1.71
Grindavik,58,IS,1571274798,81,63.84,-22.43,44.6,11.41
Luena,6,AO,1571274798,86,-11.78,19.91,62.55,2.72
Avarua,84,CK,1571274799,65,-21.21,-159.78,78.8,9.17
Dikson,100,RU,1571274799,72,73.51,80.55,25.88,13.88
Nemuro,40,JP,1571274799,54,43.32,145.57,53.6,9.17
East London,0,ZA,1571274799,78,-33.02,27.91,66.36,11.63
Kapaa,75,US,1571274800,94,22.08,-159.32,77.0,18.34
Manavalakurichi,75,IN,1571274800,94,8.13,77.3,77.0,5.82
Almaznyy,0,RU,1571274800,81,48.03,40.04,53.6,13.42
Zhuhai,40,CN,1571274801,93,40.71,112.04,41.0,6.71
Port-Gentil,100,GA,1571274801,82,-0.72,8.78,79.07,8.0
Yinchuan,84,CN,1571274802,51,38.48,106.21,48.99,5.01
Yellowknife,90,CA,1571274802,99,62.45,-114.38,33.8,5.82
Kaitangata,7,NZ,1571274802,55,-46.28,169.85,53.01,15.99
Preston,12,GB,1571274802,93,53.76,-2.71,48.0,5.82
Lompoc,75,US,1571274803,68,34.64,-120.46,73.99,4.7
Arraial do Cabo,1,BR,1571274803,91,-22.97,-42.02,72.43,15.47
Kysyl-Syr,100,RU,1571274803,98,63.9,122.77,36.18,7.54
Whitianga,89,NZ,1571274804,75,-36.83,175.7,63.0,13.0
Christchurch,3,NZ,1571274804,72,-43.53,172.64,62.01,3.36
Tazovskiy,46,RU,1571274804,83,67.47,78.7,22.59,21.7
Severo-Kurilsk,20,RU,1571274804,78,50.68,156.12,38.23,15.53
Ginda,0,IN,1571274805,93,30.69,78.49,64.4,4.14
Kadhan,0,PK,1571274805,43,24.48,68.99,83.66,6.82
Holland,75,US,1571274805,87,42.79,-86.11,48.2,9.17
Saint-Philippe,90,CA,1571274805,62,45.36,-73.48,55.4,9.17
Kresttsy,46,RU,1571274806,92,58.25,32.52,48.85,6.72
Katsuura,75,JP,1571274806,68,33.93,134.5,69.01,6.93
Gilbues,100,BR,1571274806,50,-9.83,-45.34,79.05,5.81
Shahgarh,0,IN,1571274807,69,24.31,79.12,69.13,4.99
Aklavik,20,CA,1571274807,79,68.22,-135.01,21.2,13.87
Port Lincoln,16,AU,1571274807,58,-34.72,135.86,56.23,11.6
Codrington,12,AU,1571274808,45,-28.95,153.24,93.0,19.46
Te Anau,32,NZ,1571274808,69,-45.41,167.72,49.32,1.86
Bambous Virieux,75,MU,1571274809,73,-20.34,57.76,69.8,12.75
Ostrovnoy,93,RU,1571274809,90,68.05,39.51,30.22,5.63
Longyearbyen,75,NO,1571274810,80,78.22,15.63,30.2,9.17
Broken Hill,85,AU,1571274810,30,-31.97,141.45,59.0,20.8
Castro,20,CL,1571274810,76,-42.48,-73.76,48.2,9.17
Ketchikan,90,US,1571274811,76,55.34,-131.65,51.8,28.86
Karatuzskoye,100,RU,1571274811,74,53.61,92.87,42.24,5.42
Cedar City,1,US,1571274811,17,37.68,-113.06,64.99,8.05
Harare,0,ZW,1571274812,83,-17.83,31.05,53.44,5.91
Byron Bay,35,AU,1571274812,45,-28.65,153.62,93.0,19.46
San Patricio,88,PY,1571274812,92,-26.98,-56.83,65.23,4.34
Balabac,95,PH,1571274812,77,7.99,117.06,82.22,12.75
Itapetininga,11,BR,1571274813,86,-23.59,-48.05,66.72,12.38
Agadez,8,NE,1571274813,19,16.97,7.99,88.88,4.84
Fortuna,90,US,1571274813,93,40.6,-124.16,57.99,10.29
Richards Bay,0,ZA,1571274814,77,-28.77,32.06,69.75,20.22
Kruisfontein,17,ZA,1571274814,40,-34.0,24.73,62.31,4.98
Muros,90,ES,1571274814,100,42.77,-9.06,66.0,8.05
Port Hawkesbury,1,CA,1571274815,100,45.62,-61.36,48.0,2.24
Carutapera,99,BR,1571274815,79,-1.2,-46.02,81.48,15.05
Boralday,0,KZ,1571274815,75,43.36,76.86,42.8,2.24
Ciudad Bolivar,68,VE,1571274816,76,8.12,-63.55,80.06,5.46
Labuhan,97,ID,1571274816,84,-2.54,115.51,77.22,0.87
Chokurdakh,0,RU,1571274816,86,70.62,147.9,11.3,8.31
Teya,75,MX,1571274817,70,21.05,-89.07,89.01,5.82
Maniitsoq,100,GL,1571274817,47,65.42,-52.9,34.92,10.63
Hamilton,20,CA,1571274817,87,43.26,-79.87,50.0,6.93
Daoukro,87,CI,1571274817,99,7.06,-3.97,71.19,1.77
Shizuishan,65,CN,1571274818,51,39.02,106.36,48.99,5.01
Thompson,90,CA,1571274818,84,55.74,-97.86,32.0,3.36
Agirish,20,RU,1571274818,66,61.92,63.02,25.97,6.6
Atherton,16,AU,1571274818,58,-17.27,145.48,86.0,6.93
Georgetown,40,GY,1571274819,83,6.8,-58.16,82.4,9.17
Dunedin,61,NZ,1571274819,72,-45.87,170.5,52.0,18.01
Roseburg,90,US,1571274819,72,43.22,-123.34,60.8,5.34
Haverfordwest,0,GB,1571274820,66,51.8,-4.97,57.99,20.8
Voyvozh,37,RU,1571274820,94,62.89,54.96,27.23,3.08
Dudinka,47,RU,1571274820,85,69.41,86.18,12.2,35.79
Kautokeino,0,NO,1571274820,86,69.01,23.04,16.21,3.1
Tomari,66,RU,1571274821,66,47.76,142.06,42.8,19.21
Hammerfest,0,NO,1571274821,86,70.66,23.68,30.2,10.29
Ribeira Grande,78,PT,1571274821,77,38.52,-28.7,61.3,10.08
Lebu,75,ET,1571274821,76,8.96,38.73,53.6,6.93
Khatanga,27,RU,1571274822,87,71.98,102.47,2.52,1.12
Bonavista,79,CA,1571274822,86,48.65,-53.11,43.0,5.01
La Concordia,88,NI,1571274822,97,13.2,-86.17,68.16,0.49
Norman Wells,90,CA,1571274822,92,65.28,-126.83,32.0,2.24
Fayaoue,99,NC,1571274823,66,-20.65,166.53,71.28,15.43
Dwarka,0,IN,1571274823,78,28.58,77.04,82.99,5.15
Manicore,53,BR,1571274829,96,-5.81,-61.3,73.98,3.76
Haguenau,93,FR,1571274830,81,48.82,7.79,55.99,5.82
Wanning,17,AT,1571274830,100,48.64,13.53,46.0,2.24
Rocha,100,UY,1571274831,88,-34.48,-54.34,56.43,11.64
Pimenteiras,86,BR,1571274831,35,-6.24,-41.42,84.04,1.98
Bilma,0,NE,1571274831,17,18.69,12.92,82.69,2.57
Weinan,79,CN,1571274831,100,34.5,109.46,55.99,2.24
Klaksvik,100,FO,1571274832,93,62.23,-6.59,46.4,1.12
Airai,27,TL,1571274832,18,-8.93,125.41,82.4,4.2
Tuktoyaktuk,20,CA,1571274832,85,69.44,-133.03,23.0,13.87
Husavik,100,CA,1571274832,93,50.56,-96.99,37.99,5.01
Kahului,40,US,1571274833,49,20.89,-156.47,89.6,25.28
Sao Joao da Barra,1,BR,1571274833,87,-21.64,-41.05,73.54,14.24
Chumikan,2,RU,1571274833,48,54.72,135.31,35.53,14.5
Yerbogachen,99,RU,1571274834,96,61.28,108.01,37.69,5.05
Pochutla,90,MX,1571274834,88,15.74,-96.47,75.99,6.93
Chuy,100,UY,1571274834,94,-33.69,-53.46,59.34,13.68
Puerto Madryn,0,AR,1571274834,62,-42.77,-65.04,55.44,25.23
North Bend,90,US,1571274835,93,43.41,-124.22,57.99,12.75
Ust-Shonosha,100,RU,1571274835,98,61.15,41.34,32.38,5.33
Talnakh,99,RU,1571274835,85,69.49,88.39,12.2,35.79
Oranjemund,98,ZA,1571274836,54,-28.55,16.43,66.47,7.04
Najran,40,SA,1571274836,35,17.54,44.22,69.8,3.73
Paracuru,75,BR,1571274836,74,-3.41,-39.03,80.6,13.87
Bitung,20,ID,1571274836,58,1.44,125.19,87.8,2.24
Narsaq,99,GL,1571274837,54,60.91,-46.05,30.2,3.36
Mar del Plata,45,AR,1571274837,67,-46.43,-67.52,51.89,7.67
Zaria,64,NG,1571274837,89,11.11,7.72,70.63,2.96
Paamiut,98,GL,1571274838,60,61.99,-49.67,38.35,15.32
Salinopolis,61,BR,1571274838,80,-0.61,-47.36,81.46,15.46
Mongo,100,CD,1571274838,80,-5.62,14.6,75.29,1.22
Cidreira,100,BR,1571274839,89,-30.17,-50.22,67.32,26.67
Nacala,0,MZ,1571274839,84,-14.56,40.69,70.77,5.87
Log,79,SI,1571274839,93,46.0,15.32,54.0,2.04
Vardo,90,US,1571274840,57,39.62,-77.74,54.0,12.75
Miles City,1,US,1571274840,31,46.41,-105.84,60.8,6.19
Pucallpa,75,PE,1571274840,78,-8.38,-74.54,78.8,5.82
Shahreza,0,IR,1571274840,38,32.01,51.87,48.29,1.02
Kamenka,0,MD,1571274841,65,48.03,28.7,53.92,4.41
Esil,100,KZ,1571274841,81,51.96,66.41,37.78,16.76
Sampit,100,ID,1571274841,77,-2.54,112.95,80.29,1.85
Boo,96,NG,1571274842,90,7.44,8.9,74.08,1.98
Watsa,99,CD,1571274842,98,3.04,29.53,63.68,2.89
Saint-Francois,90,FR,1571274842,82,46.42,3.91,57.2,4.7
Victoria,75,BN,1571274842,79,5.28,115.24,84.2,1.12
Nikolo-Pavlovskoye,87,RU,1571274843,79,57.79,60.05,30.13,7.49
Sainte-Rose,90,CA,1571274843,66,45.61,-73.79,55.4,8.05
Nikolskoye,90,RU,1571274843,81,59.7,30.79,42.8,6.71
Pudozh,100,RU,1571274844,97,61.81,36.54,33.19,8.6
Amarpatan,30,IN,1571274844,68,24.32,80.97,69.75,2.94
Gornopravdinsk,100,RU,1571274844,79,60.06,69.92,26.83,12.11
Nishihara,75,JP,1571274846,72,35.74,139.53,66.0,5.82
Upernavik,100,GL,1571274846,74,72.79,-56.15,27.18,4.71
Pangnirtung,100,CA,1571274847,63,66.15,-65.72,30.83,6.45
Vallenar,0,CL,1571274847,95,-28.58,-70.76,46.71,1.93
Sokolow Podlaski,27,PL,1571274847,86,52.41,22.25,48.0,11.99
Kiunga,100,PG,1571274848,84,-6.12,141.3,79.47,2.55
Rence,0,SI,1571274848,100,45.89,13.67,57.99,3.36
Lavrentiya,100,RU,1571274848,61,65.58,-170.99,33.89,19.92
Alofi,100,NU,1571274849,81,-19.06,-169.92,78.57,18.63
Balocawe,69,PH,1571274849,81,10.74,124.98,78.82,2.61
Prado,54,CO,1571274849,66,3.75,-74.93,74.17,5.9
Ahipara,60,NZ,1571274849,77,-35.17,173.16,69.01,12.45
Sao Filipe,69,CV,1571274850,86,14.9,-24.5,78.35,3.34
Vesyegonsk,100,RU,1571274850,94,58.67,37.27,45.37,8.03
Tiruchchendur,90,IN,1571274850,94,8.48,78.12,77.0,1.92
Skjervoy,21,NO,1571274850,60,70.03,20.97,37.44,9.19
Weligama,100,LK,1571274851,89,5.97,80.42,76.24,1.75
Kaihua,78,CN,1571274851,66,29.14,118.41,62.17,0.53
Rio Grande,100,BR,1571274851,90,-32.03,-52.1,62.96,26.35
Shimoda,75,JP,1571274852,77,34.7,138.93,69.01,18.34
Talaya,75,RU,1571274852,93,55.79,84.89,41.0,13.42
Ola,58,RU,1571274852,56,59.58,151.3,26.92,12.1
Sitka,0,US,1571274852,39,37.17,-99.65,60.01,11.01
Fare,15,PF,1571274853,80,-16.7,-151.02,79.88,12.8
Pinos,7,ES,1571274853,77,38.68,-0.01,69.01,8.05
Aksu,90,KZ,1571274853,93,52.04,76.93,37.4,11.18
Mecca,9,SA,1571274853,35,21.43,39.83,83.07,2.84
Kaeo,6,NZ,1571274854,77,-35.1,173.78,69.01,7.98
Lata,0,IN,1571274854,71,30.78,78.62,25.74,1.05
Palmer,40,AU,1571274854,38,-34.85,139.16,59.0,18.34
Snezhnogorsk,75,RU,1571274855,100,69.19,33.23,26.6,5.57
Zyryanovsk,100,KZ,1571274855,82,49.74,84.27,41.41,5.77
Vila Velha,75,BR,1571274855,74,-3.71,-38.6,80.6,13.87
Morros,64,BR,1571274855,78,-2.87,-44.04,80.6,11.41
Cavalcante,44,BR,1571274856,25,-13.79,-47.46,75.6,4.45
Kodiak,1,US,1571274856,75,39.95,-94.76,51.01,3.36
Lexington,90,US,1571274856,70,38.05,-84.5,48.99,6.93
Surt,0,LY,1571274857,81,31.21,16.59,70.74,9.25
Murwillumbah,35,AU,1571274857,69,-28.33,153.4,87.8,24.16
Alexandria,51,RO,1571274857,94,43.97,25.33,44.01,4.97
Silopi,77,IQ,1571274858,12,37.25,42.47,68.81,3.73
Katherine,12,AU,1571274858,30,-14.47,132.26,93.2,4.7
Dingzhou,90,CN,1571274858,100,38.51,115.0,50.0,2.24
Los Llanos de Aridane,75,ES,1571274859,68,28.66,-17.92,69.8,8.05
Nanortalik,89,GL,1571274859,61,60.14,-45.24,39.18,7.58
Hudson Bay,100,CA,1571274859,87,52.86,-102.4,36.73,5.75
Maun,28,BW,1571274860,34,-19.99,23.42,71.87,9.24
Poum,43,MK,1571274860,72,41.28,20.71,50.77,1.23
Coahuayana,75,MX,1571274860,89,18.62,-100.35,75.31,1.31
Vladimir,69,RU,1571274861,75,56.13,40.41,41.05,9.81
Rudnichnyy,94,RU,1571274862,84,59.7,60.29,30.18,4.04
Puri,99,ID,1571274862,63,-7.54,112.45,81.57,1.24
Muroto,75,JP,1571274862,50,33.37,134.14,75.2,8.05
Peto,51,MX,1571274863,61,20.13,-88.92,85.89,4.74
Isangel,40,VU,1571274863,51,-19.55,169.27,80.6,14.99
Xinglongshan,0,CN,1571274863,42,43.96,125.47,42.8,6.71
Matagami,90,NG,1571274864,91,9.67,8.4,68.58,2.13
Lorengau,48,PG,1571274864,75,-2.02,147.27,83.32,10.51
Boa Vista,40,BR,1571274864,78,2.82,-60.67,77.0,5.82
Cururupu,53,BR,1571274865,91,-1.82,-44.87,74.48,2.78
High Level,75,CA,1571274865,100,58.52,-117.13,37.4,3.36
Portland,90,US,1571274412,81,43.66,-70.25,55.0,8.05
Talmenka,75,RU,1571274865,87,53.82,83.56,42.8,17.9
Khrebtovaya,69,RU,1571274866,95,56.71,104.25,31.44,4.36
Harper,1,US,1571274866,38,30.3,-99.24,63.0,9.0
Jinchang,38,CN,1571274866,62,38.52,102.19,40.42,3.4
Hami,0,CN,1571274866,61,42.84,93.51,44.33,1.64
Tessalit,16,ML,1571274867,13,20.2,1.01,84.69,13.17
Soe,90,EE,1571274867,100,57.91,26.05,46.99,2.24
Manaquiri,33,BR,1571274867,94,-3.43,-60.46,78.8,3.36
Nador,0,MA,1571274867,72,35.17,-2.93,64.4,3.36
Solton,100,RU,1571274868,78,52.84,86.48,46.56,17.55
Mount Gambier,90,AU,1571274868,62,-37.83,140.78,53.6,26.4
Mangrol,0,IN,1571274868,83,25.33,76.51,71.6,1.99
Lokot,25,RU,1571274869,87,52.57,34.57,51.71,9.49
Edea,75,CM,1571274869,94,3.8,10.13,77.0,3.36
Maba,59,CN,1571274870,80,24.68,113.59,64.29,5.42
Saint-Augustin,90,CA,1571274870,81,45.63,-73.98,55.4,6.93
Lynn Haven,1,US,1571274870,78,30.25,-85.65,73.99,6.93
Guerrero Negro,0,MX,1571274870,67,27.97,-114.04,71.89,17.8
Mhlambanyatsi,1,SZ,1571274871,93,-26.45,31.02,51.8,4.7
Charyshskoye,100,RU,1571274871,91,51.4,83.56,41.59,9.65
Foumban,54,CM,1571274871,96,5.73,10.9,66.06,2.23
Rio Branco,20,BR,1571274872,100,-9.98,-67.82,71.6,4.7
Clyde River,90,CA,1571274872,100,70.47,-68.59,28.4,10.29
Bubaque,27,GW,1571274872,80,11.28,-15.83,82.38,12.68
Tilichiki,100,RU,1571274873,72,60.47,166.1,32.41,14.86
Floro,80,NO,1571274873,76,61.6,5.03,51.8,10.29
Sioux Lookout,90,CA,1571274873,83,50.1,-91.92,37.4,4.7
Vadum,52,DK,1571274873,97,57.12,9.86,54.0,1.01
Hasaki,75,JP,1571274874,68,35.73,140.83,66.2,9.17
Sisimiut,100,GL,1571274874,36,66.94,-53.67,30.78,5.42
Sinnamary,61,GF,1571274874,77,5.38,-52.96,82.78,12.3
Wuwei,2,CN,1571274874,61,37.93,102.64,48.99,5.15
Holetown,20,BB,1571274875,83,13.19,-59.64,80.6,5.82
Ravar,0,IR,1571274875,18,31.27,56.81,52.52,2.27
Tanete,39,ID,1571274875,66,-3.94,119.78,83.44,5.68
Tsumeb,30,NA,1571274876,19,-19.25,17.72,74.75,10.74
Toamasina,40,MG,1571274876,94,-18.17,49.38,69.8,4.7
Buchanan,75,LR,1571274876,94,5.88,-10.05,78.8,3.47
Ozernovskiy,100,RU,1571274877,81,51.5,156.52,39.97,14.65
Fairbanks,75,US,1571274878,47,64.84,-147.72,33.8,9.17
Ende,28,ID,1571274878,81,-8.84,121.65,78.31,2.15
Saint-Pierre,90,FR,1571274878,82,48.95,4.24,59.0,18.34
Apricena,40,IT,1571274879,72,41.78,15.44,64.4,6.93
Faanui,33,PF,1571274879,77,-16.48,-151.75,80.1,11.45
Pevek,12,RU,1571274879,77,69.7,170.27,30.74,5.51
Esperance,0,AU,1571274879,58,-33.86,121.89,59.0,14.99
Limbang,75,BN,1571274880,78,4.75,115.01,84.2,8.05
Tyukhtet,100,RU,1571274880,81,56.54,89.31,47.03,16.3
Vestmannaeyjar,100,IS,1571274880,67,63.44,-20.27,46.13,14.78
Nyurba,94,RU,1571274881,97,63.29,118.35,36.01,6.81
Ponta do Sol,58,BR,1571274881,57,-20.63,-46.0,72.95,2.93
Arandis,81,NA,1571274881,90,-22.42,14.98,62.01,3.0
Coihaique,35,CL,1571274882,81,-45.58,-72.07,44.6,2.24
Port Elizabeth,40,US,1571274882,76,39.31,-74.98,59.0,25.28
Aasiaat,100,GL,1571274882,48,68.71,-52.87,26.31,3.95
Tignere,94,CM,1571274882,96,7.37,12.65,67.19,0.73
Pacific Grove,1,US,1571274883,63,36.62,-121.92,66.2,5.82
Kirakira,69,SB,1571274883,69,-10.46,161.92,81.9,9.51
Gimli,100,CA,1571274883,93,50.63,-96.99,37.99,5.01
Chapais,90,CA,1571274883,100,49.78,-74.86,39.2,11.41
Sorland,0,NO,1571274884,59,67.67,12.69,44.64,16.58
Haines Junction,96,CA,1571274884,90,60.75,-137.51,25.41,4.36
Steamboat Springs,1,US,1571274884,24,40.48,-106.83,60.8,4.7
Shenjiamen,29,CN,1571274884,75,29.96,122.3,68.97,19.36
Aransas Pass,90,US,1571274885,68,27.91,-97.15,69.01,17.22
Petropavlovsk-Kamchatskiy,0,RU,1571274885,42,53.05,158.65,44.6,15.66
Strezhevoy,75,RU,1571274885,92,60.73,77.6,28.4,11.18
Tura,97,RU,1571274886,94,64.27,100.22,33.4,5.36
Aripuana,100,BR,1571274886,99,-9.17,-60.63,72.07,2.49
Wenatchee,90,US,1571274886,76,47.42,-120.31,53.6,1.57
Mackenzie,90,CA,1571274886,87,55.34,-123.09,46.4,3.67
Goumeron,20,GR,1571274887,100,37.77,21.62,60.8,2.31
Lincoln,5,GB,1571274887,100,53.23,-0.54,44.6,8.05
Makakilo City,90,US,1571274887,69,21.35,-158.09,84.99,11.41
Mirabad,0,IR,1571274887,25,28.27,61.33,62.64,2.0
Maragogi,68,BR,1571274888,74,-9.01,-35.22,78.08,13.34
Marzuq,17,YE,1571274888,62,14.4,46.47,69.35,1.92
Arlit,0,NE,1571274888,16,18.74,7.39,91.69,8.84
Saquena,22,PE,1571274889,93,-4.67,-73.52,74.37,2.77
Ormara,0,PK,1571274889,71,25.21,64.64,82.0,8.03
Jacareacanga,43,BR,1571274889,83,-6.22,-57.76,75.15,1.66
Bendigo,31,AU,1571274889,51,-36.76,144.28,54.0,7.0
Nalut,16,LY,1571274890,65,31.86,10.98,70.43,4.86
Inuvik,20,CA,1571274890,79,68.36,-133.71,21.2,13.87
Magaria,100,NE,1571274890,50,13.0,8.91,84.56,9.26
Malpe,40,IN,1571274890,88,13.35,74.72,77.0,4.7
Cabedelo,99,BR,1571274891,88,-6.97,-34.84,75.2,4.7
Golyshmanovo,95,RU,1571274891,86,56.4,68.37,31.73,13.72
Vagay,98,RU,1571274892,80,57.94,69.02,30.72,11.27
Northam,37,AU,1571274893,62,-31.65,116.67,59.0,8.05
Acari,75,BR,1571274893,71,-6.44,-36.64,70.66,31.04
Bumba,100,CD,1571274894,98,2.18,22.47,69.42,2.65
Bismarck,1,US,1571274894,86,46.81,-100.78,44.01,5.82
Matam,15,SN,1571274894,55,15.66,-13.26,89.6,2.24
Usakos,74,NA,1571274895,25,-22.0,15.59,76.26,1.49
Noumea,20,NC,1571274895,50,-22.28,166.46,78.8,18.34
Taft,51,PH,1571274895,72,11.9,125.42,83.16,7.27
Khani,0,GE,1571274895,93,41.96,42.96,50.0,3.36
Skarnes,90,NO,1571274896,100,60.25,11.68,44.01,6.93
Rajapur,47,BD,1571274896,90,22.57,90.14,74.88,1.66
Abu Kamal,67,SY,1571274897,30,34.45,40.92,74.55,7.53
Baykit,84,RU,1571274897,96,61.68,96.39,34.92,2.63
Turukhansk,100,RU,1571274897,93,65.8,87.96,30.09,4.77
Berlevag,55,NO,1571274898,73,70.86,29.09,36.59,9.58
Franklin,1,US,1571274898,54,35.93,-86.87,55.4,9.17
Preobrazheniye,0,RU,1571274898,42,42.9,133.91,47.86,2.02
Kungurtug,37,RU,1571274899,57,50.6,97.53,29.55,4.59
Marsaxlokk,0,MT,1571274899,77,35.84,14.54,70.0,8.05
Liyang,90,CN,1571274899,72,31.42,119.48,68.0,4.47
Ongandjera,31,NA,1571274900,20,-17.88,15.07,81.32,4.09
Andapa,47,MG,1571274900,98,-14.66,49.65,60.03,2.53
Longyan,17,CN,1571274900,79,25.1,117.03,62.92,3.51
Loandjili,75,CG,1571274900,94,-4.77,11.87,78.8,4.7
Waddan,9,LY,1571274901,86,29.16,16.14,64.63,9.55
Greenville,1,US,1571274901,54,34.85,-82.4,62.6,10.29
Candido de Abreu,64,BR,1571274901,91,-24.57,-51.33,67.64,3.97
Huilong,100,CN,1571274902,84,31.15,106.5,62.65,5.53
Capreol,90,CA,1571274902,100,46.71,-80.92,39.0,23.04
Chandauli,7,IN,1571274902,94,25.26,83.27,73.4,1.76
Constitucion,75,MX,1571274903,40,23.99,-104.67,71.6,12.75
Barguzin,49,RU,1571274903,69,53.62,109.63,31.05,5.18
Provideniya,90,RU,1571274903,87,64.42,-173.23,33.8,15.66
Jardim,87,BR,1571274903,89,-21.48,-56.15,73.22,6.06
Biak,25,ID,1571274904,77,-0.91,122.88,81.1,8.08
Hofn,100,IS,1571274904,83,64.25,-15.21,45.19,42.74
Volzhskiy,0,RU,1571274904,80,48.78,44.78,41.0,11.18
Egvekinot,61,RU,1571274905,91,66.32,-179.17,24.3,11.61
Cayenne,78,GF,1571274905,94,4.94,-52.33,77.0,1.12
Aljezur,0,PT,1571274906,91,37.31,-8.8,60.01,3.0
Tokat,20,TR,1571274906,61,40.33,36.55,50.0,6.93
Sosnogorsk,59,RU,1571274906,89,63.59,53.93,28.78,3.02
San Pedro,100,AR,1571274907,95,-33.68,-59.66,60.01,1.99
Tiruttani,75,IN,1571274907,100,13.18,79.61,77.0,1.12
Taoudenni,0,ML,1571274907,21,22.68,-3.98,88.83,8.55
Sakaiminato,75,JP,1571274907,59,35.55,133.23,62.6,4.7
Gasa,0,BT,1571274908,86,27.91,89.73,25.56,2.49
Riohacha,75,CO,1571274908,83,11.54,-72.91,84.2,5.82
Boueni,75,YT,1571274908,94,-12.9,45.08,77.0,2.24
Sokoni,39,CD,1571274910,53,-12.89,28.78,62.44,9.3
Kharp,22,RU,1571274910,88,66.82,65.8,12.09,9.21
Cam Ranh,40,VN,1571274910,74,11.92,109.15,84.2,6.93
Xichang,97,CN,1571274910,95,27.88,102.25,44.53,3.86
Erzin,20,TR,1571274911,63,36.95,36.2,77.0,5.82
Half Moon Bay,1,US,1571274911,87,37.46,-122.43,66.2,10.03
Storforshei,77,NO,1571274911,77,66.4,14.52,19.81,5.09
Cuamba,0,MZ,1571274911,77,-14.8,36.54,66.74,11.36
Huicungo,56,PE,1571274912,96,-7.28,-76.8,63.46,3.15
Bandarbeyla,77,SO,1571274912,78,9.49,50.81,82.6,16.8
Rafai,100,CF,1571274912,99,4.95,23.92,69.26,2.91
Buraydah,50,SA,1571274913,43,26.33,43.97,71.6,2.24
Grand Gaube,75,MU,1571274913,73,-20.01,57.66,69.8,12.75
Baisha,65,CN,1571274913,90,19.23,109.45,68.36,3.72
Chifeng,97,CN,1571274914,25,42.27,118.96,46.51,2.08
Awbari,14,LY,1571274914,53,26.59,12.77,69.8,9.95
Kolpashevo,100,RU,1571274914,92,58.31,82.9,40.69,8.9
Mount Isa,27,AU,1571274915,14,-20.73,139.49,95.0,9.17
Zhigansk,100,RU,1571274915,99,66.77,123.37,34.65,7.11
Hailar,8,CN,1571274915,30,49.2,119.7,40.46,7.69
Hokitika,99,NZ,1571274916,83,-42.72,170.96,53.87,16.55
Faya,43,SA,1571274916,41,18.39,42.45,62.6,5.82
Itarema,11,BR,1571274916,75,-2.92,-39.92,77.92,11.73
Ishigaki,75,JP,1571274916,83,24.34,124.16,78.8,13.87
Ikwiriri,95,TZ,1571274917,87,-7.96,38.99,76.86,3.66
Nome,1,US,1571274917,82,30.04,-94.42,66.2,5.82
Salalah,34,OM,1571274918,74,17.01,54.1,80.6,4.7
Mincivan,0,AZ,1571274919,53,39.03,46.72,54.46,2.82
Ancud,40,CL,1571274919,76,-41.87,-73.83,48.2,8.05
Sarkand,58,KZ,1571274920,38,45.41,79.91,49.46,3.77
Gobabis,79,NA,1571274920,29,-22.45,18.97,75.2,3.36
Broome,48,GB,1571274923,100,52.47,1.45,46.99,3.36
Arroyo,97,BO,1571274923,80,-11.08,-66.08,77.11,0.62
Pisco,40,PE,1571274924,82,-13.71,-76.2,66.99,16.11
Coruripe,14,BR,1571274924,77,-10.12,-36.18,76.17,10.4
Diego de Almagro,0,CL,1571274924,43,-26.39,-70.05,51.08,2.57
Sapele,97,NG,1571274924,95,5.89,5.68,75.07,3.13
Peniche,75,PT,1571274925,82,39.36,-9.38,66.99,12.75
Aswan,100,EG,1571274925,30,24.09,32.9,86.49,11.03
Truth or Consequences,1,US,1571274925,13,33.13,-107.25,75.2,5.82
Temiscaming,90,CA,1571274925,100,46.72,-79.1,46.99,9.17
Mikuni,75,JP,1571274926,63,36.22,136.15,64.4,1.12
San-Pedro,100,CI,1571274926,90,4.75,-6.64,77.25,8.89
Waipawa,12,NZ,1571274926,78,-39.94,176.59,57.99,11.99
Yumen,0,CN,1571274927,71,40.29,97.04,37.76,3.43
Marawi,12,PH,1571274927,82,8.0,124.29,82.0,5.99
Kutum,100,SD,1571274927,78,14.2,24.66,69.87,4.99
Jalu,85,LY,1571274928,31,29.03,21.55,80.13,13.22
Coquimbo,20,CL,1571274928,81,-29.95,-71.34,53.6,2.24
Ibra,0,OM,1571274928,39,22.69,58.55,77.72,5.14
Phetchabun,20,TH,1571274930,74,16.42,101.16,80.6,3.36
Meadow Lake,20,CA,1571274930,70,54.13,-108.44,44.6,9.17
Kushiro,20,JP,1571274930,50,43.11,144.15,53.6,6.93
Leningradskiy,6,RU,1571274930,80,69.38,178.42,33.49,11.41
Puerto Escondido,90,MX,1571274931,57,15.86,-97.07,75.2,6.93
Nouakchott,1,MR,1571274931,78,18.08,-15.98,80.6,11.41
Ialibu,51,PG,1571274931,52,-6.28,143.99,76.21,2.22
Tabuk,45,PH,1571274932,82,17.41,121.44,77.4,5.63
Tabou,100,CI,1571274932,95,4.42,-7.36,74.61,2.61
Kiama,48,AU,1571274932,35,-34.67,150.86,75.0,21.92
Nouadhibou,100,MR,1571274932,73,20.93,-17.03,73.4,10.29
Inirida,95,CO,1571274933,95,3.87,-67.92,74.17,2.09
San Ramon,88,NI,1571274933,97,12.92,-85.84,68.16,0.49
Batemans Bay,0,AU,1571274933,41,-35.71,150.18,70.0,8.01
Loukhi,96,RU,1571274934,84,66.08,33.04,32.68,2.72
Miranda,80,BR,1571274934,88,-20.24,-56.38,75.22,2.96
Adrar,100,DZ,1571274934,26,27.87,-0.29,78.8,4.7
Carbonear,90,CA,1571274934,93,47.73,-53.24,48.0,10.29
Urengoy,99,RU,1571274935,81,65.96,78.37,22.19,18.72
Phu Ly,4,VN,1571274935,87,20.54,105.91,74.41,3.95
Tiznit,95,MA,1571274935,85,29.7,-9.73,55.24,2.63
Wajima,75,JP,1571274935,58,37.4,136.9,59.0,8.05
Puro,30,PH,1571274936,81,13.13,123.76,80.29,5.49
Gizo,75,IL,1571274936,88,31.8,34.94,75.2,5.82
Bhilwara,14,IN,1571274936,53,25.35,74.64,72.19,4.2
Soka,75,JP,1571274937,72,35.84,139.8,66.2,4.7
Saint-Leu,20,RE,1571274937,73,-21.15,55.28,69.8,12.75
Mercedes,100,UY,1571274937,96,-33.25,-58.03,58.51,14.28
Hays,1,US,1571274938,43,38.88,-99.33,57.2,12.75
Touros,40,BR,1571274938,88,-5.2,-35.46,73.4,3.36
Caravelas,29,BR,1571274938,85,-17.73,-39.27,68.47,4.69
Anadyr,90,RU,1571274938,74,64.73,177.51,37.4,2.24
Virginia,90,US,1571274939,66,39.95,-90.21,48.99,7.36
Puerto Rondon,31,CO,1571274939,81,6.28,-71.1,76.41,2.44
Lakatoro,100,VU,1571274939,66,-16.11,167.42,84.2,13.87
Beringovskiy,94,RU,1571274939,76,63.05,179.32,37.78,8.8
Nadym,16,RU,1571274940,83,65.53,72.51,26.65,14.11
Pimentel,100,BR,1571274940,88,-3.7,-45.5,76.8,4.1
Zalantun,0,CN,1571274940,42,48.0,122.72,44.73,3.05
Mocorito,9,MX,1571274940,70,25.48,-107.92,88.0,11.99
Nyuksenitsa,100,RU,1571274941,96,60.41,44.24,33.57,8.81
Lolodorf,21,CM,1571274941,99,3.23,10.73,70.02,0.86
Kisanga,82,CD,1571274941,43,-11.72,27.4,67.17,6.21
Saldanha,96,PT,1571274942,82,41.42,-6.55,55.15,9.5
Aykhal,90,RU,1571274942,100,65.95,111.51,33.8,2.24
Namatanai,100,PG,1571274943,75,-3.66,152.44,82.51,11.24
Bunol,55,ES,1571274943,51,39.42,-0.78,69.01,5.82
Gongzhuling,0,CN,1571274943,42,43.5,124.81,47.89,3.2
Mucurici,39,BR,1571274943,80,-18.09,-40.52,69.48,9.51
Sidi Ali,0,DZ,1571274944,58,36.1,0.42,64.72,1.94
Price,1,US,1571274945,13,39.6,-110.81,66.0,5.82
Villablino,90,ES,1571274945,100,42.94,-6.32,61.0,9.17
Sept-Iles,40,CA,1571274946,93,50.2,-66.38,39.99,4.7
Havelock,1,US,1571274946,77,34.88,-76.9,66.99,10.29
Tabon,40,PH,1571274946,66,14.31,121.23,86.0,5.82
Ust-Tsilma,79,RU,1571274946,97,65.44,52.15,29.25,2.73
Bilibino,99,RU,1571274947,91,68.06,166.44,19.49,2.34
Mayo,90,CA,1571274947,68,63.59,-135.9,30.2,8.05
Eydhafushi,100,MV,1571274947,82,5.1,73.07,80.96,11.83
Arona,75,IT,1571274947,100,45.76,8.56,55.0,6.93
Biltine,97,TD,1571274948,68,14.53,20.93,80.47,7.0
Sabzevar,0,IR,1571274948,34,36.21,57.68,50.79,5.88
Duncan,1,US,1571274948,47,34.5,-97.96,64.4,3.36
Ratnagiri,66,IN,1571274948,88,16.98,73.3,73.38,3.22
Bria,100,CF,1571274949,98,6.54,21.99,67.64,0.5
Mareeba,25,AU,1571274949,58,-16.99,145.42,86.0,6.93
Kurilsk,1,RU,1571274949,64,45.23,147.88,47.03,21.7
Nokaneng,0,BW,1571274949,29,-19.66,22.19,76.87,12.83
Vysotsk,90,RU,1571274950,100,60.63,28.57,37.99,11.41
Olinda,75,AU,1571274950,47,-37.84,145.39,59.0,18.34
Mehamn,19,NO,1571274950,86,71.03,27.85,29.39,9.47
Meulaboh,94,ID,1571274951,78,4.14,96.13,80.42,2.06
Champerico,90,MX,1571274951,88,16.38,-93.6,77.0,1.32
Dingle,56,PH,1571274951,83,11.0,122.67,79.63,7.45
Campbell River,75,CA,1571274951,81,50.02,-125.24,53.6,10.29
Yar-Sale,5,RU,1571274952,87,66.83,70.83,23.67,13.8
Dudingen,75,CH,1571274952,87,46.85,7.19,50.0,4.38
Kloulklubed,75,PW,1571274952,70,7.04,134.26,86.0,10.29
Shubarshi,25,KZ,1571274953,75,48.59,57.19,39.18,9.15
Sorong,76,ID,1571274953,89,-0.86,131.25,80.06,2.26
Ekibastuz,20,KZ,1571274953,79,51.72,75.32,38.89,11.01
Tromso,5,NO,1571274953,100,69.65,18.96,25.0,3.36
Senneterre,90,CA,1571274954,100,48.39,-77.24,41.0,12.75
